{"type":"FeatureCollection", "features": [
{"type":"Feature","geometry":{"type":"Point","coordinates":[-78.5101009241,45.2849796369]},"properties":{"OGF_ID":143661985,"TRAIL_NAME":"Moose Trail","ASSOC":"Haliburton Forest & Wild Life Reserve Ltd."}},
{"type":"Feature","geometry":{"type":"Point","coordinates":[-78.5888758398,45.2296754709]},"properties":{"OGF_ID":143666032,"TRAIL_NAME":"Wild Woods Walk","ASSOC":"Haliburton Forest & Wild Life Reserve Ltd."}},
{"type":"Feature","geometry":{"type":"Point","coordinates":[-78.5375594088,45.2275413813]},"properties":{"OGF_ID":143663270,"TRAIL_NAME":"Redstone Vista Trail","ASSOC":"Haliburton Forest & Wild Life Reserve Ltd."}},
{"type":"Feature","geometry":{"type":"Point","coordinates":[-78.4769228077,45.2945701807]},"properties":{"OGF_ID":143665753,"TRAIL_NAME":"Sunday Trail","ASSOC":"Haliburton Forest & Wild Life Reserve Ltd."}},
{"type":"Feature","geometry":{"type":"Point","coordinates":[-78.5917043305,45.2180106319]},"properties":{"OGF_ID":143665112,"TRAIL_NAME":"Forestry Walk","ASSOC":"Haliburton Forest & Wild Life Reserve Ltd."}},
{"type":"Feature","geometry":{"type":"Point","coordinates":[-78.4831536947,45.3145452614]},"properties":{"OGF_ID":143662843,"TRAIL_NAME":"Lost Lake Shelter Cabin","ASSOC":"Haliburton Forest & Wild Life Reserve Ltd."}},
{"type":"Feature","geometry":{"type":"Point","coordinates":[-78.5541588331,45.2444675854]},"properties":{"OGF_ID":143663442,"TRAIL_NAME":"Dog's Ear Trail","ASSOC":"Haliburton Forest & Wild Life Reserve Ltd."}},
{"type":"Feature","geometry":{"type":"Point","coordinates":[-78.5710732475,45.2951074281]},"properties":{"OGF_ID":143666214,"TRAIL_NAME":"Trapline Trail","ASSOC":"Haliburton Forest & Wild Life Reserve Ltd."}},
{"type":"Feature","geometry":{"type":"Point","coordinates":[-78.4924675091,45.267479902]},"properties":{"OGF_ID":143663560,"TRAIL_NAME":"Lookout Trail","ASSOC":"Haliburton Forest & Wild Life Reserve Ltd."}},
{"type":"Feature","geometry":{"type":"Point","coordinates":[-78.5127329148,45.2400429278]},"properties":{"OGF_ID":143663273,"TRAIL_NAME":"Krista Trail","ASSOC":"Haliburton Forest & Wild Life Reserve Ltd."}},
{"type":"Feature","geometry":{"type":"Point","coordinates":[-78.4770686311,45.2780564383]},"properties":{"OGF_ID":143666957,"TRAIL_NAME":"Sprucetree Trail","ASSOC":"Haliburton Forest & Wild Life Reserve Ltd."}},
{"type":"Feature","geometry":{"type":"Point","coordinates":[-78.5587616499,45.2525827045]},"properties":{"OGF_ID":143667029,"TRAIL_NAME":"Dog Trail","ASSOC":"Haliburton Forest & Wild Life Reserve Ltd."}},
{"type":"Feature","geometry":{"type":"Point","coordinates":[-78.5219320995,45.2379473049]},"properties":{"OGF_ID":143659472,"TRAIL_NAME":"Ben's Trail","ASSOC":"Haliburton Forest & Wild Life Reserve Ltd."}},
{"type":"Feature","geometry":{"type":"Point","coordinates":[-78.583539832,45.2300316018]},"properties":{"OGF_ID":143659414,"TRAIL_NAME":"Wolf Centre Trail","ASSOC":"Haliburton Forest & Wild Life Reserve Ltd."}},
{"type":"Feature","geometry":{"type":"Point","coordinates":[-78.5195239995,45.2542536341]},"properties":{"OGF_ID":143659147,"TRAIL_NAME":"North Shore Trail","ASSOC":"Haliburton Forest & Wild Life Reserve Ltd."}},
{"type":"Feature","geometry":{"type":"Point","coordinates":[-78.4988337762,45.2468508815]},"properties":{"OGF_ID":143659640,"TRAIL_NAME":"Greg Trail","ASSOC":"Haliburton Forest & Wild Life Reserve Ltd."}},
{"type":"Feature","geometry":{"type":"Point","coordinates":[-78.5412914334,45.2686960254]},"properties":{"OGF_ID":143663804,"TRAIL_NAME":"Red Trail","ASSOC":"Haliburton Forest & Wild Life Reserve Ltd."}},
{"type":"Feature","geometry":{"type":"Point","coordinates":[-78.587149783,45.2419906395]},"properties":{"OGF_ID":143663866,"TRAIL_NAME":"Droplet Trail","ASSOC":"Haliburton Forest & Wild Life Reserve Ltd."}},
{"type":"Feature","geometry":{"type":"Point","coordinates":[-78.608589092,45.2442623094]},"properties":{"OGF_ID":143659769,"TRAIL_NAME":"Kelly Lake Trail","ASSOC":"Haliburton Forest & Wild Life Reserve Ltd."}},
{"type":"Feature","geometry":{"type":"Point","coordinates":[-78.5356251056,45.2926971069]},"properties":{"OGF_ID":143660510,"TRAIL_NAME":"Depot Lake Trail","ASSOC":"Haliburton Forest & Wild Life Reserve Ltd."}},
{"type":"Feature","geometry":{"type":"Point","coordinates":[-78.5097783969,45.2744141164]},"properties":{"OGF_ID":143660165,"TRAIL_NAME":"King & James Trail","ASSOC":"Haliburton Forest & Wild Life Reserve Ltd."}},
{"type":"Feature","geometry":{"type":"Point","coordinates":[-78.6156722553,45.2790408204]},"properties":{"OGF_ID":143664761,"TRAIL_NAME":"Beaver Pond Trail","ASSOC":"Haliburton Forest & Wild Life Reserve Ltd."}},
{"type":"Feature","geometry":{"type":"Point","coordinates":[-78.5450848699,45.2437353714]},"properties":{"OGF_ID":143659877,"TRAIL_NAME":"Chico Trail","ASSOC":"Haliburton Forest & Wild Life Reserve Ltd."}},
{"type":"Feature","geometry":{"type":"Point","coordinates":[-78.5784711686,45.2489017762]},"properties":{"OGF_ID":143664693,"TRAIL_NAME":"Tear Drop","ASSOC":"Haliburton Forest & Wild Life Reserve Ltd."}},
{"type":"Feature","geometry":{"type":"Point","coordinates":[-78.5586986884,45.2328424184]},"properties":{"OGF_ID":143659874,"TRAIL_NAME":"Hopkinson Pond Trail","ASSOC":"Haliburton Forest & Wild Life Reserve Ltd."}},
{"type":"Feature","geometry":{"type":"Point","coordinates":[-78.4761002472,45.2694254203]},"properties":{"OGF_ID":143664312,"TRAIL_NAME":"Outlook Trail","ASSOC":"Haliburton Forest & Wild Life Reserve Ltd."}},
{"type":"Feature","geometry":{"type":"Point","coordinates":[-78.5895446681,45.2280136055]},"properties":{"OGF_ID":143665559,"TRAIL_NAME":"Base Camp Trail","ASSOC":"Haliburton Forest & Wild Life Reserve Ltd."}},
{"type":"Feature","geometry":{"type":"Point","coordinates":[-78.5107759112,45.2607939574]},"properties":{"OGF_ID":143660938,"TRAIL_NAME":"Black Loop","ASSOC":"Haliburton Forest & Wild Life Reserve Ltd."}},
{"type":"Feature","geometry":{"type":"Point","coordinates":[-78.520283717,45.2626972958]},"properties":{"OGF_ID":143665429,"TRAIL_NAME":"Green Trail","ASSOC":"Haliburton Forest & Wild Life Reserve Ltd."}},
{"type":"Feature","geometry":{"type":"Point","coordinates":[-78.5425072453,45.2241024089]},"properties":{"OGF_ID":143661784,"TRAIL_NAME":"The Pass","ASSOC":"Haliburton Forest & Wild Life Reserve Ltd."}},
{"type":"Feature","geometry":{"type":"Point","coordinates":[-78.5552841493,45.2206945028]},"properties":{"OGF_ID":143664767,"TRAIL_NAME":"Poacher's Trail","ASSOC":"Haliburton Forest & Wild Life Reserve Ltd."}},
{"type":"Feature","geometry":{"type":"Point","coordinates":[-78.603933678,45.2654028718]},"properties":{"OGF_ID":143661284,"TRAIL_NAME":"Osprey Trail","ASSOC":"Haliburton Forest & Wild Life Reserve Ltd."}},
{"type":"Feature","geometry":{"type":"Point","coordinates":[-78.4837967747,45.2600933]},"properties":{"OGF_ID":143661153,"TRAIL_NAME":"Black Creek Trail","ASSOC":"Haliburton Forest & Wild Life Reserve Ltd."}},
{"type":"Feature","geometry":{"type":"Point","coordinates":[-78.569886962,45.2385130552]},"properties":{"OGF_ID":143665561,"TRAIL_NAME":"Normac Trail","ASSOC":"Haliburton Forest & Wild Life Reserve Ltd."}},
{"type":"Feature","geometry":{"type":"Point","coordinates":[-78.5516530122,45.3060921139]},"properties":{"OGF_ID":143662267,"TRAIL_NAME":"Wolf Trail","ASSOC":"Haliburton Forest & Wild Life Reserve Ltd."}},
{"type":"Feature","geometry":{"type":"Point","coordinates":[-78.6337979583,45.242827599]},"properties":{"OGF_ID":143666100,"TRAIL_NAME":"Kendra Trail","ASSOC":"Haliburton Forest & Wild Life Reserve Ltd."}}
]}